{"features": [{"geometry": {"coordinates": [-81.247056, 32.148093], "type": "Point"}, "properties": {"Unsafe": 1, "stop_code": null, "stop_desc": null, "stop_id": "1903", "stop_lat": 32.14809347, "stop_lon": -81.24705613, "stop_name": "Benton & Colonial Village", "stop_route": "3"}, "type": "Feature"}, {"geometry": {"coordinates": [-81.232751, 32.161912], "type": "Point"}, "properties": {"Unsafe": 1, "stop_code": null, "stop_desc": null, "stop_id": "2141", "stop_lat": 32.16191181, "stop_lon": -81.23275149, "stop_name": "Benton & Jimmy DeLoach SB", "stop_route": "3"}, "type": "Feature"}, {"geometry": {"coordinates": [-81.232546, 32.162083], "type": "Point"}, "properties": {"Unsafe": 1, "stop_code": null, "stop_desc": null, "stop_id": "1932", "stop_lat": 32.1620831, "stop_lon": -81.23254577, "stop_name": "Benton & Jimmy DeLoach NB", "stop_route": "3"}, "type": "Feature"}, {"geometry": {"coordinates": [-81.232552, 32.174767], "type": "Point"}, "properties": {"Unsafe": 1, "stop_code": null, "stop_desc": null, "stop_id": "1905", "stop_lat": 32.17476701, "stop_lon": -81.23255213, "stop_name": "Benton & Godley STA School SB", "stop_route": "3"}, "type": "Feature"}, {"geometry": {"coordinates": [-81.227217, 32.176671], "type": "Point"}, "properties": {"Unsafe": 1, "stop_code": null, "stop_desc": null, "stop_id": "1895", "stop_lat": 32.17667082, "stop_lon": -81.22721666, "stop_name": "Benton & Highlands", "stop_route": "3"}, "type": "Feature"}, {"geometry": {"coordinates": [-81.226592, 32.152357], "type": "Point"}, "properties": {"Unsafe": 1, "stop_code": null, "stop_desc": null, "stop_id": "101", "stop_lat": 32.15235656, "stop_lon": -81.22659239, "stop_name": "Crossroads & Knowlton WB", "stop_route": "3"}, "type": "Feature"}, {"geometry": {"coordinates": [-81.221531, 32.153866], "type": "Point"}, "properties": {"Unsafe": 1, "stop_code": null, "stop_desc": null, "stop_id": "79", "stop_lat": 32.15386612, "stop_lon": -81.22153101, "stop_name": "Crossroads & Dollar Tree WB", "stop_route": "3"}, "type": "Feature"}, {"geometry": {"coordinates": [-81.213902, 32.156477], "type": "Point"}, "properties": {"Unsafe": 1, "stop_code": null, "stop_desc": null, "stop_id": "100", "stop_lat": 32.15647694, "stop_lon": -81.21390188, "stop_name": "Crossroads & Innovation WB", "stop_route": "3"}, "type": "Feature"}, {"geometry": {"coordinates": [-81.211987, 32.157343], "type": "Point"}, "properties": {"Unsafe": 1, "stop_code": null, "stop_desc": null, "stop_id": "99", "stop_lat": 32.15734347, "stop_lon": -81.21198706, "stop_name": "Crossroads & Home Depot WB", "stop_route": "3"}, "type": "Feature"}, {"geometry": {"coordinates": [-81.207236, 32.163238], "type": "Point"}, "properties": {"Unsafe": 1, "stop_code": null, "stop_desc": null, "stop_id": "95", "stop_lat": 32.16323771, "stop_lon": -81.20723573, "stop_name": "Jimmy DeLoach & Crossroads WB", "stop_route": "3"}, "type": "Feature"}, {"geometry": {"coordinates": [-81.196777, 32.164946], "type": "Point"}, "properties": {"Unsafe": 1, "stop_code": null, "stop_desc": null, "stop_id": "1919", "stop_lat": 32.16494578, "stop_lon": -81.19677748, "stop_name": "Jimmy DeLoach & Ocean WB", "stop_route": "3"}, "type": "Feature"}, {"geometry": {"coordinates": [-81.193672, 32.164252], "type": "Point"}, "properties": {"Unsafe": 1, "stop_code": null, "stop_desc": null, "stop_id": "96", "stop_lat": 32.16425179, "stop_lon": -81.1936721, "stop_name": "Jimmy DeLoach & Expansion WB", "stop_route": "3"}, "type": "Feature"}, {"geometry": {"coordinates": [-81.184896, 32.163707], "type": "Point"}, "properties": {"Unsafe": 1, "stop_code": null, "stop_desc": null, "stop_id": "1894", "stop_lat": 32.16370686, "stop_lon": -81.18489591, "stop_name": "Jimmy DeLoach & Hwy 21 WB", "stop_route": "3"}, "type": "Feature"}, {"geometry": {"coordinates": [-81.176745, 32.146646], "type": "Point"}, "properties": {"Unsafe": 1, "stop_code": null, "stop_desc": null, "stop_id": "2274", "stop_lat": 32.14664635, "stop_lon": -81.17674521, "stop_name": "Crossgate at Amazon WB", "stop_route": "5"}, "type": "Feature"}, {"geometry": {"coordinates": [-81.176496, 32.146462], "type": "Point"}, "properties": {"Unsafe": 1, "stop_code": null, "stop_desc": null, "stop_id": "2275", "stop_lat": 32.1464615, "stop_lon": -81.1764957, "stop_name": "Crossgate at Amazon EB", "stop_route": "5"}, "type": "Feature"}, {"geometry": {"coordinates": [-81.178003, 32.147432], "type": "Point"}, "properties": {"Unsafe": 1, "stop_code": null, "stop_desc": null, "stop_id": "50", "stop_lat": 32.14743177, "stop_lon": -81.178003, "stop_name": "Hwy 21 & Crossgate WB", "stop_route": "5"}, "type": "Feature"}, {"geometry": {"coordinates": [-81.172678, 32.135401], "type": "Point"}, "properties": {"Unsafe": 1, "stop_code": null, "stop_desc": null, "stop_id": "2254", "stop_lat": 32.13540086, "stop_lon": -81.17267771, "stop_name": "Grange Rd EB", "stop_route": "5"}, "type": "Feature"}], "type": "FeatureCollection"}