{"features": [{"geometry": {"coordinates": [-81.247056, 32.148093], "type": "Point"}, "properties": {"Unsafe": 1, "stop_code": "1903", "stop_desc": null, "stop_id": "609", "stop_lat": 32.14809347, "stop_lon": -81.24705613, "stop_name": "Benton & Colonial Village"}, "type": "Feature"}, {"geometry": {"coordinates": [-81.232751, 32.161912], "type": "Point"}, "properties": {"Unsafe": 1, "stop_code": "2141", "stop_desc": null, "stop_id": "665", "stop_lat": 32.16191181, "stop_lon": -81.23275149, "stop_name": "Benton & Jimmy DeLoach SB"}, "type": "Feature"}, {"geometry": {"coordinates": [-81.232546, 32.162083], "type": "Point"}, "properties": {"Unsafe": 1, "stop_code": "1932", "stop_desc": null, "stop_id": "636", "stop_lat": 32.1620831, "stop_lon": -81.23254577, "stop_name": "Benton & Jimmy DeLoach NB"}, "type": "Feature"}, {"geometry": {"coordinates": [-81.232552, 32.174767], "type": "Point"}, "properties": {"Unsafe": 1, "stop_code": "1905", "stop_desc": null, "stop_id": "611", "stop_lat": 32.17476701, "stop_lon": -81.23255213, "stop_name": "Benton & Godley STA School SB"}, "type": "Feature"}, {"geometry": {"coordinates": [-81.227217, 32.176671], "type": "Point"}, "properties": {"Unsafe": 1, "stop_code": "1895", "stop_desc": null, "stop_id": "603", "stop_lat": 32.17667082, "stop_lon": -81.22721666, "stop_name": "Benton & Highlands"}, "type": "Feature"}, {"geometry": {"coordinates": [-81.226592, 32.152357], "type": "Point"}, "properties": {"Unsafe": 1, "stop_code": "101", "stop_desc": null, "stop_id": "9", "stop_lat": 32.15235656, "stop_lon": -81.22659239, "stop_name": "Crossroads & Knowlton WB"}, "type": "Feature"}, {"geometry": {"coordinates": [-81.221531, 32.153866], "type": "Point"}, "properties": {"Unsafe": 1, "stop_code": "79", "stop_desc": null, "stop_id": "1124", "stop_lat": 32.15386612, "stop_lon": -81.22153101, "stop_name": "Crossroads & Dollar Tree WB"}, "type": "Feature"}, {"geometry": {"coordinates": [-81.213902, 32.156477], "type": "Point"}, "properties": {"Unsafe": 1, "stop_code": "100", "stop_desc": null, "stop_id": "1", "stop_lat": 32.15647694, "stop_lon": -81.21390188, "stop_name": "Crossroads & Innovation WB"}, "type": "Feature"}, {"geometry": {"coordinates": [-81.211987, 32.157343], "type": "Point"}, "properties": {"Unsafe": 1, "stop_code": "99", "stop_desc": null, "stop_id": "1286", "stop_lat": 32.15734347, "stop_lon": -81.21198706, "stop_name": "Crossroads & Home Depot WB"}, "type": "Feature"}, {"geometry": {"coordinates": [-81.207236, 32.163238], "type": "Point"}, "properties": {"Unsafe": 1, "stop_code": "95", "stop_desc": null, "stop_id": "1253", "stop_lat": 32.16323771, "stop_lon": -81.20723573, "stop_name": "Jimmy DeLoach & Crossroads WB"}, "type": "Feature"}, {"geometry": {"coordinates": [-81.196777, 32.164946], "type": "Point"}, "properties": {"Unsafe": 1, "stop_code": "1919", "stop_desc": null, "stop_id": "623", "stop_lat": 32.16494578, "stop_lon": -81.19677748, "stop_name": "Jimmy DeLoach & Ocean WB"}, "type": "Feature"}, {"geometry": {"coordinates": [-81.193672, 32.164252], "type": "Point"}, "properties": {"Unsafe": 1, "stop_code": "96", "stop_desc": null, "stop_id": "1261", "stop_lat": 32.16425179, "stop_lon": -81.1936721, "stop_name": "Jimmy DeLoach & Expansion WB"}, "type": "Feature"}, {"geometry": {"coordinates": [-81.184896, 32.163707], "type": "Point"}, "properties": {"Unsafe": 1, "stop_code": "1894", "stop_desc": null, "stop_id": "602", "stop_lat": 32.16370686, "stop_lon": -81.18489591, "stop_name": "Jimmy DeLoach & Hwy 21 WB"}, "type": "Feature"}, {"geometry": {"coordinates": [-81.176745, 32.146646], "type": "Point"}, "properties": {"Unsafe": 1, "stop_code": "2274", "stop_desc": null, "stop_id": "1400", "stop_lat": 32.14664635, "stop_lon": -81.17674521, "stop_name": "Crossgate at Amazon WB"}, "type": "Feature"}, {"geometry": {"coordinates": [-81.176496, 32.146462], "type": "Point"}, "properties": {"Unsafe": 1, "stop_code": "2275", "stop_desc": null, "stop_id": "1401", "stop_lat": 32.1464615, "stop_lon": -81.1764957, "stop_name": "Crossgate at Amazon EB"}, "type": "Feature"}, {"geometry": {"coordinates": [-81.178003, 32.147432], "type": "Point"}, "properties": {"Unsafe": 1, "stop_code": "50", "stop_desc": null, "stop_id": "897", "stop_lat": 32.14743177, "stop_lon": -81.178003, "stop_name": "Hwy 21 & Crossgate WB"}, "type": "Feature"}, {"geometry": {"coordinates": [-81.172678, 32.135401], "type": "Point"}, "properties": {"Unsafe": 1, "stop_code": "2254", "stop_desc": null, "stop_id": "1384", "stop_lat": 32.13540086, "stop_lon": -81.17267771, "stop_name": "Grange Rd EB"}, "type": "Feature"}], "type": "FeatureCollection"}